{
  "locations": [
    {
      "id": 1,
      "name": "Schachtelwirt 80",
      "photo": "https://images.unsplash.com/photo-1514933651103-005eec06c04b?ixlib=rb-1.2.1&ixid=eyJhcHBfaWQiOjEyMDd9&auto=format&fit=crop&w=1267&q=80",
      "description": "Nice place for a quick and delicious meal",
      "occasion": "breakfast",
      "phone": "01589384",
      "street": "Schwedenplatz 1",
      "city": "Vienna",
      "food": "American",
      "casual": "casual",
      "fancy": "fancy",
      "latitude": 48.21,
      "longitude": 16.35
    },
    {
      "id": 2,
      "name": "Zur goldenen MÃ¶we",
      "photo": "https://images.unsplash.com/photo-1514933651103-005eec06c04b?ixlib=rb-1.2.1&ixid=eyJhcHBfaWQiOjEyMDd9&auto=format&fit=crop&w=1267&q=80",
      "description": "Nice place for a quick and delicious meal",
      "occasion": "dinner",
      "phone": "01589384",
      "street": "Schwedenplatz 1",
      "city": "Vienna",
      "food": "American",
      "casual": "casual",
      "fancy": "",
      "latitude": 48.22,
      "longitude": 16.33
    },
    {
      "id": 3,
      "name": "Schachtelwirt4455",
      "photo": "https://images.unsplash.com/photo-1514933651103-005eec06c04b?ixlib=rb-1.2.1&ixid=eyJhcHBfaWQiOjEyMDd9&auto=format&fit=crop&w=1267&q=80",
      "description": "Nice place for a quick and delicious meal",
      "occasion": "lunch",
      "phone": "01589384",
      "street": "Schwedenplatz 1",
      "city": "Vienna",
      "food": "American",
      "casual": "",
      "fancy": "fancy",
      "latitude": 48.24,
      "longitude": 16.32
    },
    {
      "id": 4,
      "name": "hjk",
      "photo": "https://images.unsplash.com/photo-1514933651103-005eec06c04b?ixlib=rb-1.2.1&ixid=eyJhcHBfaWQiOjEyMDd9&auto=format&fit=crop&w=1267&q=80",
      "description": "hjkhjk",
      "occasion": "hjkhhj",
      "phone": "khjhk",
      "street": "kjhkjh",
      "city": "jkhkj",
      "food": "kjhk",
      "casual": "on",
      "fancy": "",
      "latitude": "48.2311",
      "longitude": "16.3511"
    }
  ]
}